{"type":"FeatureCollection","features":[{"type":"Feature","properties":{"name":"Ahmedabad"},"geometry":{"type":"Point","coordinates":[72.5701904296875,23.034242642076585]}},{"type":"Feature","properties":{"name":"Delhi"},"geometry":{"type":"Point","coordinates":[77.2119140625,28.613459424004414]}},{"type":"Feature","properties":{"name":"Bangalore"},"geometry":{"type":"Point","coordinates":[77.6513671875,12.983147716796578]}},{"type":"Feature","properties":{"name":"Bangalore"},"geometry":{"type":"Point","coordinates":[77.2119140625,13.025965926333539]}},{"type":"Feature","properties":{"name":"Chandigarh"},"geometry":{"type":"Point","coordinates":[76.75048828125,30.712913657488656]}},{"type":"Feature","properties":{"name":"Chennai"},"geometry":{"type":"Point","coordinates":[80.28465270996094,13.07011445259898]}},{"type":"Feature","properties":{"name":"Cuttack"},"geometry":{"type":"Point","coordinates":[85.869140625,20.406420474920292]}},{"type":"Feature","properties":{"name":"Dharamsala"},"geometry":{"type":"Point","coordinates":[76.32064819335938,32.21163915464704]}},{"type":"Feature","properties":{"name":"Hyderabad"},"geometry":{"type":"Point","coordinates":[78.47946166992188,17.374231311336153]}},{"type":"Feature","properties":{"name":"Indore"},"geometry":{"type":"Point","coordinates":[75.9375,22.755920681486405]}},{"type":"Feature","properties":{"name":"Jaipur"},"geometry":{"type":"Point","coordinates":[75.849609375,26.78484736105119]}},{"type":"Feature","properties":{"name":"Kanpur"},"geometry":{"type":"Point","coordinates":[80.31005859375,26.45090222367262]}},{"type":"Feature","properties":{"name":"Kolkata"},"geometry":{"type":"Point","coordinates":[88.2861328125,22.553147478403194]}},{"type":"Feature","properties":{"name":"Kochi"},"geometry":{"type":"Point","coordinates":[84.35989379882811,21.753122381956054]}},{"type":"Feature","properties":{"name":"Mumbai"},"geometry":{"type":"Point","coordinates":[72.8173828125,18.895892559415024]}},{"type":"Feature","properties":{"name":"Nagpur"},"geometry":{"type":"Point","coordinates":[79.07958984375,21.105000275382064]}},{"type":"Feature","properties":{"name":"Pune"},"geometry":{"type":"Point","coordinates":[73.8720703125,18.417078658661257]}},{"type":"Feature","properties":{"name":"Ranchi"},"geometry":{"type":"Point","coordinates":[85.31982421875,23.33216830631147]}},{"type":"Feature","properties":{"name":"Visakhapatnam"},"geometry":{"type":"Point","coordinates":[83.3203125,17.66495983051931]}},{"type":"Feature","properties":{"name":"Rajkot"},"geometry":{"type":"Point","coordinates":[70.83572387695312,22.297990905053123]}},{"type":"Feature","properties":{"name":"Raipur"},"geometry":{"type":"Point","coordinates":[86.06333255767822,22.88412248626077]}}]}